{
  "visitedPlaces": [
    { "name": "西宁", "province": "青海", "lng": 101.777916, "lat": 36.617372, "description": "青藏高原门户，以塔尔寺和拉鸡山闻名。" },
    { "name": "宝鸡", "province": "陕西", "lng": 107.136, "lat": 34.37, "description": "陕甘宁的交通枢纽，以炎帝故里闻名。" },
    { "name": "西安", "province": "陕西", "lng": 108.93984, "lat": 34.341568, "description": "古都长安，以兵马俑和大明宫遗址闻名。" },
    { "name": "兰州", "province": "甘肃", "lng": 103.834303, "lat": 36.061089, "description": "以黄河风情和牛肉面著称，甘肃省会。" },
    { "name": "汉中", "province": "陕西", "lng": 107.023, "lat": 33.065, "description": "以三国文化和汉水源头闻名。" },
    { "name": "陇南", "province": "甘肃", "lng": 104.92, "lat": 33.4, "description": "陇南有悠久的文化历史，是甘川陕交汇之地。" },
    { "name": "广元", "province": "四川", "lng": 105.843, "lat": 32.435, "description": "以昭化古城和剑门蜀道闻名。" },
    { "name": "广安", "province": "四川", "lng": 106.633, "lat": 30.456, "description": "邓小平故里，拥有深厚的历史文化资源。" },
    { "name": "南昌", "province": "江西", "lng": 115.853, "lat": 28.682, "description": "革命摇篮，秀丽景观和历史文化交融。" },
    { "name": "德阳", "province": "四川", "lng": 104.397, "lat": 31.127, "description": "以三星堆遗址闻名。" },
    { "name": "绵阳", "province": "四川", "lng": 104.679, "lat": 31.467, "description": "中国科技城，文学巨匠李白的故里。" },
    { "name": "九寨沟", "province": "四川", "lng": 103.917, "lat": 33.259, "description": "世界自然遗产，拥有美丽彩池和瀑布群。" },
    { "name": "成都", "province": "四川", "lng": 104.066, "lat": 30.572, "description": "天府之国美誉，以美食和休闲著称。" },
    { "name": "南充", "province": "四川", "lng": 106.11, "lat": 30.837, "description": "具有悠久的三国文化历史。" },
    { "name": "阆中", "province": "四川", "lng": 106.005, "lat": 31.558, "description": "三国蜀汉文化的重要发源地。" },
    { "name": "巴中", "province": "四川", "lng": 106.747, "lat": 31.867, "description": "地处川陕，红军文化遗址丰富。" },
    { "name": "张掖", "province": "甘肃", "lng": 100.449, "lat": 38.929, "description": "丹霞地貌和裕固族文化特色。" },
    { "name": "武威", "province": "甘肃", "lng": 102.637, "lat": 37.933, "description": "古丝路重镇，被誉为凉州。" },
    { "name": "酒泉", "province": "甘肃", "lng": 98.495, "lat": 39.732, "description": "戈壁珍珠，丝路文化源远流长。" },
    { "name": "嘉峪关", "province": "甘肃", "lng": 98.289, "lat": 39.773, "description": "明代长城西端重要关隘，丝路节点。" },
    { "name": "敦煌", "province": "甘肃", "lng": 94.662, "lat": 40.142, "description": "敦煌是丝绸之路上的重要节点，以莫高窟闻名。" },
    { "name": "固原", "province": "宁夏", "lng": 106.285, "lat": 36.005, "description": "六盘山脚下的历史名城。" },
    { "name": "襄阳", "province": "湖北", "lng": 112.122, "lat": 32.009, "description": "三国文化荟萃之地，著名的古隆中。" },
    { "name": "荆州", "province": "湖北", "lng": 112.241, "lat": 30.325, "description": "长江之滨，楚文化发源地。" },
    { "name": "宜昌", "province": "湖北", "lng": 111.292, "lat": 30.697, "description": "宜昌靠近三峡大坝，是自然风光与工程魅力的结合。" },
    { "name": "十堰", "province": "湖北", "lng": 110.801, "lat": 32.636, "description": "道教文化胜地，以武当山闻名。" },
    { "name": "恩施", "province": "湖北", "lng": 109.488, "lat": 30.293, "description": "清江画廊和巴楚文化闻名。" },
    { "name": "武汉", "province": "湖北", "lng": 114.305392, "lat": 30.593098, "description": "长江经济带核心城市，九省通衢。" },
    { "name": "长沙", "province": "湖南", "lng": 112.938, "lat": 28.228, "description": "岳麓山下书院和橘子洲闻名的历史名城。" },
    { "name": "景德镇", "province": "江西", "lng": 117.184, "lat": 29.248, "description": "世界陶瓷出产中心，以'瓷都'闻名。" },
    { "name": "金华", "province": "浙江", "lng": 119.647, "lat": 29.079, "description": "以双龙洞和婺城区闻名。" },
    { "name": "绍兴", "province": "浙江", "lng": 120.582, "lat": 29.997, "description": "文化古城，以鲁迅故居和鉴湖闻名。" },
    { "name": "杭州", "province": "浙江", "lng": 120.155, "lat": 30.274, "description": "人间天堂，拥有西湖和良渚遗址。" },
    { "name": "义乌", "province": "浙江", "lng": 120.075, "lat": 29.298, "description": "小商品市场闻名全球。" },
    { "name": "嘉兴", "province": "浙江", "lng": 120.762, "lat": 30.750, "description": "南湖红船为红色旅游标志。" },
    { "name": "上海", "province": "上海", "lng": 121.473701, "lat": 31.230416, "description": "中国现代化都市中心。" },
    { "name": "苏州", "province": "江苏", "lng": 120.585, "lat": 31.298, "description": "园林之城，以拙政园和寒山寺闻名。" },
    { "name": "无锡", "province": "江苏", "lng": 120.311, "lat": 31.491, "description": "太湖风光和江南水乡典范。" },
    { "name": "常州", "province": "江苏", "lng": 119.974, "lat": 31.810, "description": "江苏重要城市，以恐龙园闻名。" },
    { "name": "南京", "province": "江苏", "lng": 118.796, "lat": 32.060, "description": "六朝古都，拥有中山陵和夫子庙。" },
    { "name": "镇江", "province": "江苏", "lng": 119.452, "lat": 32.204, "description": "京口三山和镇江醋闻名。" },
    { "name": "扬州", "province": "江苏", "lng": 119.412, "lat": 32.393, "description": "瘦西湖和扬州三把刀闻名。" },
    { "name": "福州", "province": "福建", "lng": 119.296, "lat": 26.074, "description": "福建省会，拥有三坊七巷文化。" },
    { "name": "厦门", "province": "福建", "lng": 118.088, "lat": 24.479, "description": "美丽海滨城市，以鼓浪屿闻名。" },
    { "name": "鼓浪屿", "province": "福建", "lng": 118.06, "lat": 24.44, "description": "厦门外海一座小岛，以风景如画闻名。" },
    { "name": "龙岩", "province": "福建", "lng": 117.017, "lat": 25.078, "description": "福建省西部的重要交通枢纽。" },
    { "name": "漳州", "province": "福建", "lng": 117.647, "lat": 24.515, "description": "江南水乡风貌，福建海洋文化中心。" },
    { "name": "深圳", "province": "广东", "lng": 114.057868, "lat": 22.543099, "description": "中国制造与创新城市核心，现代化都市。" },
    { "name": "广州", "province": "广东", "lng": 113.264434, "lat": 23.129162, "description": "南中国经济重心，以粤菜和岭南文化闻名。" },
    { "name": "玉林", "province": "广西", "lng": 110.09, "lat": 22.38, "description": "广西重要城市，以荔枝和龙眼等热带水果闻名。" },
    { "name": "湛江", "province": "广东", "lng": 110.358, "lat": 21.270, "description": "广东西南部重要港口城市，以海鲜和热带风情闻名。" },
    { "name": "海口", "province": "海南", "lng": 110.198, "lat": 20.044, "description": "海南省会，椰城之称，热带海滨风光。" },
    { "name": "三亚", "province": "海南", "lng": 109.508, "lat": 18.252, "description": "中国著名的热带滨海旅游城市。" },
    { "name": "南宁", "province": "广西", "lng": 108.32, "lat": 22.816, "description": "绿城之称，广西壮族自治区首府。" },
    { "name": "百色", "province": "广西", "lng": 106.618, "lat": 23.900, "description": "广西西部重要城市，以红色革命文化闻名。" },
    { "name": "桂林", "province": "广西", "lng": 110.290, "lat": 25.273, "description": "桂林山水甲天下。" },
    { "name": "六盘水", "province": "贵州", "lng": 104.83, "lat": 26.59, "description": "中国凉都，以气候凉爽和煤炭工业闻名。" },
    { "name": "攀枝花", "province": "四川", "lng": 101.718, "lat": 26.582, "description": "钢城之称，以钢铁工业和阳光城闻名。" },
    { "name": "大理", "province": "云南", "lng": 100.223, "lat": 25.595, "description": "苍山洱海环抱，白族文化发源地。" },
    { "name": "丽江", "province": "云南", "lng": 100.230, "lat": 26.880, "description": "古城丽江，纳西族文化与世界文化遗产。" },
    { "name": "昆明", "province": "云南", "lng": 102.832, "lat": 24.880, "description": "春城之称，西南重要城市枢纽。" },
    { "name": "安顺", "province": "贵州", "lng": 105.946, "lat": 26.253, "description": "以黄果树瀑布和屯堡文化闻名。" },
    { "name": "贵阳", "province": "贵州", "lng": 106.630, "lat": 26.648, "description": "贵州省会，爽爽贵阳美誉。" },
    { "name": "凯里", "province": "贵州", "lng": 107.981, "lat": 26.589, "description": "黔东南州首府，苗族文化中心。" },
    { "name": "雅安", "province": "四川", "lng": 103.04, "lat": 30.00, "description": "雨城之称，以大熊猫和茶文化闻名。" },
    { "name": "自贡", "province": "四川", "lng": 104.778, "lat": 29.339, "description": "盐都，以井盐和彩灯闻名。" },
    { "name": "内江", "province": "四川", "lng": 105.060, "lat": 29.580, "description": "甜城，以制糖工业闻名。" },
    { "name": "宜宾", "province": "四川", "lng": 104.642, "lat": 28.752, "description": "万里长江第一城，以五粮液闻名。" },
    { "name": "拉萨", "province": "西藏", "lng": 91.140856, "lat": 29.645554, "description": "日光之城，布达拉宫所在地。" },
    { "name": "北京", "province": "北京", "lng": 116.407526, "lat": 39.904030, "description": "中华人民共和国首都，政治文化中心。" },
    { "name": "天津", "province": "天津", "lng": 117.199, "lat": 39.085, "description": "直辖市，北方重要港口城市。" },
    { "name": "廊坊", "province": "河北", "lng": 116.705, "lat": 39.519, "description": "京津走廊上的重要城市，也是我上大学的地方。", "photo": "/images/cities/langfang.jpg","article": "/posts/2012-08-03/" },
    { "name": "石家庄", "province": "河北", "lng": 114.520, "lat": 38.042, "description": "河北省会，重要的交通枢纽。" },
    { "name": "郑州", "province": "河南", "lng": 113.625, "lat": 34.756, "description": "河南省会，中原腹地交通枢纽。" },
    { "name": "加德满都", "province": "尼泊尔", "lng": 85.324, "lat": 27.717, "description": "尼泊尔首都，文化和宗教交汇之地。" }
  ],
  "plannedPlaces": [
    {
      "name": "华山",
      "province": "陕西",
      "lng": 110.07447,
      "lat": 34.48324,
      "description": "【计划中】华山是中国著名的道教圣地，以险峻闻名。"
    },
    {
      "name": "318国道线",
      "province": "中国西南",
      "lng": 97.599,
      "lat": 29.459,
      "description": "【计划中】从成都到拉萨的景观之路，被誉为中国最美公路。",
      "path": [
        { "lng": 104.0668, "lat": 30.5728 },
        { "lng": 103.0001, "lat": 30.4007 },
        { "lng": 102.5450, "lat": 29.9950 },
        { "lng": 101.8750, "lat": 30.0480 },
        { "lng": 101.7090, "lat": 30.3440 },
        { "lng": 101.2060, "lat": 30.0990 },
        { "lng": 100.2410, "lat": 31.3920 },
        { "lng": 99.5630, "lat": 30.6010 },
        { "lng": 99.0700, "lat": 30.0110 },
        { "lng": 97.9000, "lat": 29.9700 },
        { "lng": 97.7160, "lat": 28.9710 },
        { "lng": 96.5430, "lat": 30.0410 },
        { "lng": 96.1240, "lat": 29.6880 },
        { "lng": 94.6030, "lat": 29.7650 },
        { "lng": 92.8370, "lat": 29.8940 },
        { "lng": 91.1320, "lat": 30.6600 }
      ]
    }
  ],
  "desiredPlaces": [
    {
      "name": "台北",
      "province": "台湾",
      "lng": 121.55983,
      "lat": 25.08569,
      "description": "台湾的经济与文化中心，充满现代都市气息。"
    },
    {
      "name": "秦皇岛",
      "province": "河北",
      "lng": 119.58658,
      "lat": 39.94468,
      "description": "沿海风景优美，以山海关为著名景点。"
    }
  ]
}